[
  {"city": "Adelaide", "latitude": -34.9285, "longitude": 138.6007},
  {"city": "Brisbane", "latitude": -27.4698, "longitude": 153.0251},
  {"city": "Broome", "latitude": -17.9500, "longitude": 122.2333},
  {"city": "Cairns", "latitude": -16.9186, "longitude": 145.7781},
  {"city": "Canberra", "latitude": -35.3075, "longitude": 149.1244},
  {"city": "Christmas Island", "latitude": -10.4475, "longitude": 105.6904},
  {"city": "Darwin", "latitude": -12.4634, "longitude": 130.8456},
  {"city": "Gold Coast", "latitude": -28.0167, "longitude": 153.4000},
  {"city": "Gold Coast/Coolangatta", "latitude": -28.0167, "longitude": 153.4000},
  {"city": "Hobart", "latitude": -42.8821, "longitude": 147.3272},
  {"city": "Melbourne", "latitude": -37.8136, "longitude": 144.9631},
  {"city": "Newcastle", "latitude": -32.9283, "longitude": 151.7817},
  {"city": "Norfolk Island", "latitude": -29.0408, "longitude": 167.9547},
  {"city": "Perth", "latitude": -31.9505, "longitude": 115.8605},
  {"city": "Port Hedland", "latitude": -20.3103, "longitude": 118.6075},
  {"city": "Sunshine Coast", "latitude": -26.6833, "longitude": 153.0667},
  {"city": "Sydney", "latitude": -33.8688, "longitude": 151.2093},
  {"city": "Toowoomba Wellcamp", "latitude": -27.5583, "longitude": 151.9167},
  {"city": "Townsville", "latitude": -19.2590, "longitude": 146.8169},
  {"city": "Abu Dhabi", "latitude": 24.4539, "longitude": 54.3773},
  {"city": "Abuja", "latitude": 9.0579, "longitude": 7.4951},
  {"city": "Al Ain", "latitude": 24.2075, "longitude": 55.7447},
  {"city": "Al-Fujairah", "latitude": 25.1288, "longitude": 56.3265},
  {"city": "Almaty", "latitude": 43.2220, "longitude": 76.8512},
  {"city": "Alotau", "latitude": -10.3167, "longitude": 150.4500},
  {"city": "Ambon", "latitude": -3.6954, "longitude": 128.1814},
  {"city": "Amsterdam", "latitude": 52.3676, "longitude": 4.9041},
  {"city": "Anchorage", "latitude": 61.2181, "longitude": -149.9003},
  {"city": "Ankara", "latitude": 39.9334, "longitude": 32.8597},
  {"city": "Apia", "latitude": -13.8506, "longitude": -171.7513},
  {"city": "Astana", "latitude": 51.1694, "longitude": 71.4491},
  {"city": "Athens", "latitude": 37.9838, "longitude": 23.7275},
  {"city": "Atlanta", "latitude": 33.6407, "longitude": -84.4277},
  {"city": "Auckland", "latitude": -37.0082, "longitude": 174.7850},
  {"city": "Bahrain", "latitude": 26.2285, "longitude": 50.5860},
  {"city": "Baku", "latitude": 40.3777, "longitude": 49.8920},
  {"city": "Bandar Seri Begawan", "latitude": 4.9403, "longitude": 114.9481},
  {"city": "Bangalore", "latitude": 12.9716, "longitude": 77.5946},
  {"city": "Bangkok", "latitude": 13.6900, "longitude": 100.7501},
  {"city": "Batam", "latitude": 1.1210, "longitude": 104.1169},
  {"city": "Beijing", "latitude": 40.0799, "longitude": 116.6031},
  {"city": "Beirut", "latitude": 33.8869, "longitude": 35.5131},
  {"city": "Belgrade", "latitude": 44.8184, "longitude": 20.3091},
  {"city": "Belo Horizonte", "latitude": -19.6247, "longitude": -43.9719},
  {"city": "Bombay", "latitude": 19.0896, "longitude": 72.8656},
  {"city": "Boston", "latitude": 42.3656, "longitude": -71.0096},
  {"city": "Brussels", "latitude": 50.9010, "longitude": 4.4844},
  {"city": "Buenos Aires", "latitude": -34.8222, "longitude": -58.5358},
  {"city": "Cairo", "latitude": 30.1219, "longitude": 31.4056},
  {"city": "Calgary", "latitude": 51.1315, "longitude": -114.0106},
  {"city": "Can Tho", "latitude": 10.0851, "longitude": 105.7120},
  {"city": "Cape Town", "latitude": -33.9715, "longitude": 18.6021},
  {"city": "Cebu", "latitude": 10.3070, "longitude": 123.8790},
  {"city": "Changchun", "latitude": 43.9966, "longitude": 125.2202},
  {"city": "Changsha", "latitude": 28.1891, "longitude": 113.2200},
  {"city": "Chengdu", "latitude": 30.5785, "longitude": 103.9470},
  {"city": "Chicago", "latitude": 41.9742, "longitude": -87.9073},
  {"city": "Chongqing", "latitude": 29.7192, "longitude": 106.6417},
  {"city": "Christchurch", "latitude": -43.4865, "longitude": 172.5332},
  {"city": "Cincinnati", "latitude": 39.0489, "longitude": -84.6678},
  {"city": "Cleveland", "latitude": 41.4117, "longitude": -81.8498},
  {"city": "Cologne", "latitude": 50.8659, "longitude": 7.1427},
  {"city": "Colombo", "latitude": 7.1807, "longitude": 79.8842},
  {"city": "Copenhagen", "latitude": 55.6180, "longitude": 12.6508},
  {"city": "DRESDEN", "latitude": 51.1328, "longitude": 13.7671},
  {"city": "Da Nang", "latitude": 16.0544, "longitude": 108.2022},
  {"city": "Dallas", "latitude": 32.8998, "longitude": -97.0403},
  {"city": "Daru", "latitude": -9.0765, "longitude": 143.2092},
  {"city": "Denpasar", "latitude": -8.7467, "longitude": 115.1667},
  {"city": "Delhi", "latitude": 28.5562, "longitude": 77.1000},
  {"city": "Dhaka", "latitude": 23.8103, "longitude": 90.4125},
  {"city": "Doha", "latitude": 25.2612, "longitude": 51.6147},
  {"city": "Dubai", "latitude": 25.2532, "longitude": 55.3657},
  {"city": "Dublin", "latitude": 53.4213, "longitude": -6.2701},
  {"city": "Dusseldorf", "latitude": 51.2895, "longitude": 6.7668},
  {"city": "Frankfurt", "latitude": 50.0379, "longitude": 8.5622},
  {"city": "Fukuoka", "latitude": 33.5859, "longitude": 130.4511},
  {"city": "Guangzhou", "latitude": 23.3924, "longitude": 113.2988},
  {"city": "Hanoi", "latitude": 21.2212, "longitude": 105.8072},
  {"city": "Harare", "latitude": -17.9319, "longitude": 31.1480},
  {"city": "Ho Chi Minh City", "latitude": 10.8188, "longitude": 106.6519},
  {"city": "Hong Kong", "latitude": 22.3080, "longitude": 113.9185},
  {"city": "Honiara", "latitude": -9.4280, "longitude": 159.9550},
  {"city": "Honolulu", "latitude": 21.3187, "longitude": -157.9225},
  {"city": "Houston", "latitude": 29.9902, "longitude": -95.3368},
  {"city": "Hyderabad", "latitude": 17.2403, "longitude": 78.4294},
  {"city": "Istanbul", "latitude": 41.2619, "longitude": 28.7419},
  {"city": "Jakarta", "latitude": -6.1256, "longitude": 106.6559},
  {"city": "Johannesburg", "latitude": -26.1392, "longitude": 28.2460},
  {"city": "Karratha", "latitude": -20.7122, "longitude": 116.7731},
  {"city": "Kathmandu", "latitude": 27.6966, "longitude": 85.3591},
  {"city": "Kigali", "latitude": -1.9686, "longitude": 30.1395},
  {"city": "Kuala Lumpur", "latitude": 2.7456, "longitude": 101.7072},
  {"city": "Kunming", "latitude": 25.1019, "longitude": 102.9292},
  {"city": "Lagos", "latitude": 6.5774, "longitude": 3.3213},
  {"city": "Lanzhou", "latitude": 36.5152, "longitude": 103.6208},
  {"city": "Las Vegas", "latitude": 36.0840, "longitude": -115.1537},
  {"city": "London", "latitude": 51.4700, "longitude": -0.4543},
  {"city": "Los Angeles", "latitude": 33.9416, "longitude": -118.4085},
  {"city": "Luang Prabang", "latitude": 19.8978, "longitude": 102.1613},
  {"city": "Madrid", "latitude": 40.4983, "longitude": -3.5676},
  {"city": "Male", "latitude": 4.1917, "longitude": 73.5292},
  {"city": "Manila", "latitude": 14.5086, "longitude": 121.0194},
  {"city": "Medan", "latitude": 3.6422, "longitude": 98.8853},
  {"city": "Mexico City", "latitude": 19.4363, "longitude": -99.0721},
  {"city": "Miami", "latitude": 25.7959, "longitude": -80.2870},
  {"city": "Milan", "latitude": 45.6306, "longitude": 8.7281},
  {"city": "Moscow", "latitude": 55.9726, "longitude": 37.4146},
  {"city": "Mumbai", "latitude": 19.0896, "longitude": 72.8656},
  {"city": "Munich", "latitude": 48.3538, "longitude": 11.7861},
  {"city": "Muscat", "latitude": 23.5933, "longitude": 58.2844},
  {"city": "Nairobi", "latitude": -1.3192, "longitude": 36.9278},
  {"city": "Nadi", "latitude": -17.7553, "longitude": 177.4503},
  {"city": "Nanjing", "latitude": 31.7420, "longitude": 118.8620},
  {"city": "Nanning", "latitude": 22.6083, "longitude": 108.1720},
  {"city": "New York", "latitude": 40.6413, "longitude": -73.7781},
  {"city": "Noumea", "latitude": -22.0146, "longitude": 166.2130},
  {"city": "Osaka", "latitude": 34.4347, "longitude": 135.2440},
  {"city": "Oslo", "latitude": 60.1939, "longitude": 11.1004},
  {"city": "Paris", "latitude": 49.0097, "longitude": 2.5479},
  {"city": "Phuket", "latitude": 8.1132, "longitude": 98.3169},
  {"city": "Port Moresby", "latitude": -9.4438, "longitude": 147.2200},
  {"city": "Port Vila", "latitude": -17.6993, "longitude": 168.3198},
  {"city": "Qingdao", "latitude": 36.2661, "longitude": 120.3744},
  {"city": "Queenstown", "latitude": -45.0211, "longitude": 168.7397},
  {"city": "Rome", "latitude": 41.8003, "longitude": 12.2389},
  {"city": "San Francisco", "latitude": 37.6213, "longitude": -122.3790},
  {"city": "Santiago", "latitude": -33.3930, "longitude": -70.7858},
  {"city": "Sao Paulo", "latitude": -23.4356, "longitude": -46.4731},
  {"city": "Sapporo", "latitude": 42.7752, "longitude": 141.6920},
  {"city": "Seattle", "latitude": 47.4502, "longitude": -122.3088},
  {"city": "Seoul", "latitude": 37.4602, "longitude": 126.4407},
  {"city": "Shanghai", "latitude": 31.1443, "longitude": 121.8083},
  {"city": "Shenyang", "latitude": 41.6383, "longitude": 123.4839},
  {"city": "Shenzhen", "latitude": 22.6393, "longitude": 113.8111},
  {"city": "Singapore", "latitude": 1.3644, "longitude": 103.9915},
  {"city": "Stockholm", "latitude": 59.6519, "longitude": 17.9186},
  {"city": "Suva", "latitude": -18.0433, "longitude": 178.5596},
  {"city": "Taipei", "latitude": 25.0777, "longitude": 121.2328},
  {"city": "Tehran", "latitude": 35.6892, "longitude": 51.3133},
  {"city": "Tel Aviv", "latitude": 32.0114, "longitude": 34.8867},
  {"city": "Tianjin", "latitude": 39.1244, "longitude": 117.3464},
  {"city": "Tokyo", "latitude": 35.7647, "longitude": 140.3864},
  {"city": "Toronto", "latitude": 43.6777, "longitude": -79.6248},
  {"city": "Ulaanbaatar", "latitude": 47.8431, "longitude": 106.7666},
  {"city": "Vancouver", "latitude": 49.1947, "longitude": -123.1838},
  {"city": "Vienna", "latitude": 48.1103, "longitude": 16.5697},
  {"city": "Vientiane", "latitude": 17.9883, "longitude": 102.5633},
  {"city": "Warsaw", "latitude": 52.1657, "longitude": 20.9671},
  {"city": "Washington DC", "latitude": 38.8521, "longitude": -77.0377},
  {"city": "Wellington", "latitude": -41.3272, "longitude": 174.8050},
  {"city": "Wuhan", "latitude": 30.7838, "longitude": 114.2081},
  {"city": "Xi An", "latitude": 34.4471, "longitude": 108.7514},
  {"city": "Xiamen", "latitude": 24.5440, "longitude": 118.1278},
  {"city": "Yangon", "latitude": 16.9073, "longitude": 96.1333},
  {"city": "Zhengzhou", "latitude": 34.5197, "longitude": 113.8406},
  {"city": "Zurich", "latitude": 47.4647, "longitude": 8.5492}
]

